{"type":"FeatureCollection","features":[{"type":"Feature","properties":{"State":"AL","famous_first":"","name":"","accomplishment":""},"geometry":{"type":"Point","coordinates":[-86.79113,32.806671]}},{"type":"Feature","properties":{"State":"AK","famous_first":"","name":"","accomplishment":""},"geometry":{"type":"Point","coordinates":[-152.404419,61.370716]}},{"type":"Feature","properties":{"State":"AZ","famous_first":"","name":"","accomplishment":""},"geometry":{"type":"Point","coordinates":[-111.431221,33.729759]}},{"type":"Feature","properties":{"State":"AR","famous_first":"","name":"","accomplishment":""},"geometry":{"type":"Point","coordinates":[-92.373123,34.969704]}},{"type":"Feature","properties":{"State":"CA","famous_first":"yes","name":"Nancy Pelosi","accomplishment":"first female Speaker of the House"},"geometry":{"type":"Point","coordinates":[-119.681564,36.116203]}},{"type":"Feature","properties":{"State":"CO","famous_first":"","name":"","accomplishment":""},"geometry":{"type":"Point","coordinates":[-105.311104,39.059811]}},{"type":"Feature","properties":{"State":"CT","famous_first":"","name":"","accomplishment":""},"geometry":{"type":"Point","coordinates":[-72.755371,41.597782]}},{"type":"Feature","properties":{"State":"DE","famous_first":"","name":"","accomplishment":""},"geometry":{"type":"Point","coordinates":[-75.507141,39.318523]}},{"type":"Feature","properties":{"State":"FL","famous_first":"","name":"","accomplishment":""},"geometry":{"type":"Point","coordinates":[-81.686783,27.766279]}},{"type":"Feature","properties":{"State":"GA","famous_first":"","name":"","accomplishment":""},"geometry":{"type":"Point","coordinates":[-83.643074,33.040619]}},{"type":"Feature","properties":{"State":"HI","famous_first":"yes","name":"Patsy Mink","accomplishment":"first Asian-American and first woman of color elected to Congress"},"geometry":{"type":"Point","coordinates":[-157.498337,21.094318]}},{"type":"Feature","properties":{"State":"ID","famous_first":"","name":"","accomplishment":""},"geometry":{"type":"Point","coordinates":[-114.478828,44.240459]}},{"type":"Feature","properties":{"State":"IL","famous_first":"","name":"","accomplishment":""},"geometry":{"type":"Point","coordinates":[-88.986137,40.349457]}},{"type":"Feature","properties":{"State":"IN","famous_first":"","name":"","accomplishment":""},"geometry":{"type":"Point","coordinates":[-86.258278,39.849426]}},{"type":"Feature","properties":{"State":"IA","famous_first":"","name":"","accomplishment":""},"geometry":{"type":"Point","coordinates":[-93.210526,42.011539]}},{"type":"Feature","properties":{"State":"KS","famous_first":"yes","name":"Sharice Davids","accomplishment":"one of the first two Native American women elected to Congress"},"geometry":{"type":"Point","coordinates":[-96.726486,38.5266]}},{"type":"Feature","properties":{"State":"KY","famous_first":"","name":"","accomplishment":""},"geometry":{"type":"Point","coordinates":[-84.670067,37.66814]}},{"type":"Feature","properties":{"State":"LA","famous_first":"","name":"","accomplishment":""},"geometry":{"type":"Point","coordinates":[-91.867805,31.169546]}},{"type":"Feature","properties":{"State":"ME","famous_first":"","name":"","accomplishment":""},"geometry":{"type":"Point","coordinates":[-69.381927,44.693947]}},{"type":"Feature","properties":{"State":"MD","famous_first":"","name":"","accomplishment":""},"geometry":{"type":"Point","coordinates":[-76.802101,39.063946]}},{"type":"Feature","properties":{"State":"MA","famous_first":"","name":"","accomplishment":""},"geometry":{"type":"Point","coordinates":[-71.530106,42.230171]}},{"type":"Feature","properties":{"State":"MI","famous_first":"yes","name":"Rashida Tlaib","accomplishment":"one of the first two Islamic women elected to Congress"},"geometry":{"type":"Point","coordinates":[-84.536095,43.326618]}},{"type":"Feature","properties":{"State":"MN","famous_first":"yes","name":"Ilhan Omar","accomplishment":"first Somali-Americans, and one of the first two Islamic women elected to Congress. "},"geometry":{"type":"Point","coordinates":[-93.900192,45.694454]}},{"type":"Feature","properties":{"State":"MS","famous_first":"","name":"","accomplishment":""},"geometry":{"type":"Point","coordinates":[-89.678696,32.741646]}},{"type":"Feature","properties":{"State":"MO","famous_first":"yes","name":"Jeannette Rankin","accomplishment":"first woman elected to national office"},"geometry":{"type":"Point","coordinates":[-92.288368,38.456085]}},{"type":"Feature","properties":{"State":"MT","famous_first":"","name":"","accomplishment":""},"geometry":{"type":"Point","coordinates":[-110.454353,46.921925]}},{"type":"Feature","properties":{"State":"NE","famous_first":"","name":"","accomplishment":""},"geometry":{"type":"Point","coordinates":[-98.268082,41.12537]}},{"type":"Feature","properties":{"State":"NV","famous_first":"","name":"","accomplishment":""},"geometry":{"type":"Point","coordinates":[-117.055374,38.313515]}},{"type":"Feature","properties":{"State":"NH","famous_first":"","name":"","accomplishment":""},"geometry":{"type":"Point","coordinates":[-71.563896,43.452492]}},{"type":"Feature","properties":{"State":"NJ","famous_first":"","name":"","accomplishment":""},"geometry":{"type":"Point","coordinates":[-74.521011,40.298904]}},{"type":"Feature","properties":{"State":"NM","famous_first":"yes","name":"Deb Haaland","accomplishment":"one of the first two Native American women elected to Congress"},"geometry":{"type":"Point","coordinates":[-106.248482,34.840515]}},{"type":"Feature","properties":{"State":"NY","famous_first":"yes","name":"Shirley Chisholm","accomplishment":"first black woman elected to Contress"},"geometry":{"type":"Point","coordinates":[-74.948051,42.165726]}},{"type":"Feature","properties":{"State":"NC","famous_first":"","name":"","accomplishment":""},"geometry":{"type":"Point","coordinates":[-79.806419,35.630066]}},{"type":"Feature","properties":{"State":"ND","famous_first":"","name":"","accomplishment":""},"geometry":{"type":"Point","coordinates":[-99.784012,47.528912]}},{"type":"Feature","properties":{"State":"OH","famous_first":"","name":"","accomplishment":""},"geometry":{"type":"Point","coordinates":[-82.764915,40.388783]}},{"type":"Feature","properties":{"State":"OK","famous_first":"","name":"","accomplishment":""},"geometry":{"type":"Point","coordinates":[-96.928917,35.565342]}},{"type":"Feature","properties":{"State":"OR","famous_first":"","name":"","accomplishment":""},"geometry":{"type":"Point","coordinates":[-122.070938,44.572021]}},{"type":"Feature","properties":{"State":"PA","famous_first":"","name":"","accomplishment":""},"geometry":{"type":"Point","coordinates":[-77.209755,40.590752]}},{"type":"Feature","properties":{"State":"RI","famous_first":"","name":"","accomplishment":""},"geometry":{"type":"Point","coordinates":[-71.51178,41.680893]}},{"type":"Feature","properties":{"State":"SC","famous_first":"","name":"","accomplishment":""},"geometry":{"type":"Point","coordinates":[-80.945007,33.856892]}},{"type":"Feature","properties":{"State":"SD","famous_first":"","name":"","accomplishment":""},"geometry":{"type":"Point","coordinates":[-99.438828,44.299782]}},{"type":"Feature","properties":{"State":"TN","famous_first":"","name":"","accomplishment":""},"geometry":{"type":"Point","coordinates":[-86.692345,35.747845]}},{"type":"Feature","properties":{"State":"TX","famous_first":"","name":"","accomplishment":""},"geometry":{"type":"Point","coordinates":[-97.563461,31.054487]}},{"type":"Feature","properties":{"State":"UT","famous_first":"","name":"","accomplishment":""},"geometry":{"type":"Point","coordinates":[-111.862434,40.150032]}},{"type":"Feature","properties":{"State":"VT","famous_first":"","name":"","accomplishment":""},"geometry":{"type":"Point","coordinates":[-72.710686,44.045876]}},{"type":"Feature","properties":{"State":"VA","famous_first":"","name":"","accomplishment":""},"geometry":{"type":"Point","coordinates":[-78.169968,37.769337]}},{"type":"Feature","properties":{"State":"WA","famous_first":"","name":"","accomplishment":""},"geometry":{"type":"Point","coordinates":[-121.490494,47.400902]}},{"type":"Feature","properties":{"State":"WV","famous_first":"","name":"","accomplishment":""},"geometry":{"type":"Point","coordinates":[-80.954453,38.491226]}},{"type":"Feature","properties":{"State":"WI","famous_first":"yes","name":"Tammy Baldwin","accomplishment":"first openly LGBT+ woman elected to Congress"},"geometry":{"type":"Point","coordinates":[-89.616508,44.268543]}},{"type":"Feature","properties":{"State":"WY","famous_first":"","name":"","accomplishment":""},"geometry":{"type":"Point","coordinates":[-107.30249,42.755966]}}]}